Municipality,Latitude,Longitude,Beta,Char
Oslo,59.9171,10.72753,3.8000013912932245,1.6400942270164756
Aremark,59.1833,11.6833,3.800000246133005,1.587856377330435
Askim,59.5833,11.1667,3.800000119389054,2.0480243850555966
Eidsberg,59.5167,11.3,3.8000001776842773,1.9873848613964913
Fredrikstad,59.2181,10.9298,3.8000005563240395,1.340069617827448
Halden,59.1333,11.3833,3.8000011173531916,1.0874242907941152
Hobøl,59.6167,10.9667,3.8000000185427356,1.9906061087979534
Hvaler,59.0333,11.0,3.800001686834538,1.230676130446393
Marker,59.4833,11.6667,3.7999988304570285,2.1072968607374567
Moss,59.434,10.6577,3.800001311944971,1.8304705493667783
Rakkestad,59.4278,11.3472,3.800000067799964,1.9284896311026565
Rygge,59.3667,10.7833,3.7999992534250526,1.7327325772194466
Rømskog,59.75,11.8333,3.8000012195625414,2.6535870633875644
Råde,59.35,10.85,3.7999979660423415,1.7057403560884241
Sarpsborg,59.2833,11.1167,3.799998112326406,1.3967093340871157
Skiptvet,59.4833,11.1667,3.8000006306382867,2.2168269663316424
Spydeberg,59.6167,11.0833,3.800001279750514,2.0888840969221945
Trøgstad,59.6333,11.3167,3.800000008764141,2.401996013513591
Våler,60.65,11.8333,3.8000009310939538,2.7805971538165943
Indre Østfold,59.56247,11.34845,3.8000004397175773,2.4349961274807765
Bærum,59.90701,10.49593,3.8000011455495035,2.4015033412278948
Gjerdrum,60.0833,11.0333,3.7999992815666523,3.4967697955992185
Hurdal,60.4333,11.0333,3.8000003174308525,4.31025484682009
Lørenskog,59.9167,10.95,3.7999997413315683,2.8387566257072128
Nannestad,60.25,11.0333,3.800000270499512,3.3061669045756688
Nes,60.1181,9.2506,3.799999722861354,5.450927756352618
Nesodden,59.8167,10.6667,3.7999988557446907,2.166882490017669
Oppegård,59.8,10.8,3.800000743134351,1.9214019143137546
Rælingen,59.9247,11.05,3.7999995905436585,3.077877934472691
Skedsmo,59.95,11.05,3.7999990706915057,2.9333017252313947
Ski,59.7197,10.8356,3.800001237180561,2.1836752416748064
Sørum,60.0,11.25,3.7999997224863695,3.149156651888124
Ullensaker,60.1419,11.1749,3.80000035600298,3.2788848529496013
Vestby,59.5333,10.75,3.8000011460515037,1.6092711674171112
Ås,59.6636,10.79,3.7999977296510123,1.9521182769100396
Enebakk,59.7666,11.1029,3.8000005391804477,2.487378247249134
Aurskog-Høland,59.79585,11.47022,3.7999999569976426,1.9154162447149032
Lillestrøm,59.95577,11.04931,3.7999990618723936,2.9370895731822273
Nittedal,60.04269,10.88169,3.799999348125902,3.9503012283502406
Nordre Follo,59.72049,10.83884,3.8000008847432643,2.150118971697874
Eidsvoll,60.33234,11.26831,3.799999483252611,2.7246046943384163
Asker,59.83697,10.43741,3.8000006822225973,3.616619720857634
Frogn,59.6658,10.63644,3.8000009034890425,3.0036011089297734
Alvdal,62.1075,10.6292,3.8000012158453678,1.931164578899901
Eidskog,60.05,12.1333,3.7999992521451955,2.25861455876148
Elverum,60.8833,11.5667,3.799999156161961,2.9218607087541035
Engerdal,61.5667,11.9167,3.7999999999708103,4.59744155436324
Folldal,62.1333,9.9833,3.7999989032224244,1.4792630781059801
Grue,60.4333,12.3,3.800000312052452,2.4660187208656463
Hamar,60.7945,11.067,3.7999994773781856,1.7792990669449114
Kongsvinger,60.19,12.0,3.7999997509761894,1.8519272456258684
Løten,60.8167,11.3333,3.800001401334999,1.8045880858882617
Nord-Odal,60.4167,11.5667,3.7999992569910033,2.4241071220332824
Bjørnafjorden,62.5,11.2167,3.8000000688584574,2.518150874982267
Rendalen,61.8833,11.0833,3.8000001452678966,1.9216292887545843
Ringsaker,60.95,10.9167,3.7999995128562722,3.9096707912842206
Stange,60.7167,11.2,3.7999986024564443,1.8717140329875488
Stor-Elvdal,61.6333,11.0,3.800000573305535,2.4829242338863713
Sør-Odal,60.25,11.5667,3.8000001881929304,1.9261294365078752
Tolga,62.4167,10.9833,3.7999994852594527,2.51230903438896
Trysil,61.3167,12.2667,3.7999989587052476,2.9370402698592053
Tynset,62.275,10.7761,3.7999999397039432,2.143318069228576
Åmot,61.0,11.5,3.8000002938829485,4.040546385222699
Åsnes,60.5667,12.0,3.7999987760347995,1.9528844965693741
Dovre,62.0745,9.2524,3.8000002318227066,3.161417931334047
Etnedal,60.887,9.5537,3.7999999630351553,3.7687635438225424
Gausdal,61.2653,10.1491,3.800000294028171,3.243663621922571
Gjøvik,60.7957,10.6916,3.799999740580236,3.186505224872792
Gran,60.3636,10.5662,3.800001358720163,3.521732930991828
Jevnaker,60.2416,10.3852,3.800000550062269,2.8294568515753307
Lesja,62.2203,8.8582,3.800000378669453,6.436538398038176
Lillehammer,61.1153,10.4663,3.7999990450170644,2.933167269500226
Lom,61.8371,8.5684,3.8000004891976866,3.4210240847038245
Lunner,60.2975,10.6123,3.8000002608042607,3.878257006210222
Nord-Aurdal,61.034,9.2754,3.799999336398859,3.1813604360516736
Nord-Fron,61.5939,9.7417,3.7999993112191506,1.9086107733887
Nordre Land,60.8254,10.0408,3.799999169973036,2.391659083603122
Ringebu,61.5278,10.1419,3.8000012960322933,2.0944208142174974
Sel,61.7722,9.3931,3.8000009961624435,2.6565601257132307
Skjåk,61.8781,8.263,3.7999995706233105,3.3393536066006146
Søndre Land,60.6819,10.3402,3.7999993788742676,2.526707709412579
Sør-Aurdal,60.8139,9.5378,3.8000006844722742,3.283393601560886
Sør-Fron,61.5974,9.7508,3.7999993112191506,1.9086107733887
Vang,61.1255,8.5711,3.8000006261280004,4.6704026384352355
Vestre Slidre,61.0754,8.9898,3.799999604193269,2.876647324079427
Vestre Toten,60.7166,10.6175,3.7999997708842614,4.039748196972997
Vågå,61.8736,8.9701,3.799999682030678,4.056933697699969
Østre Toten,60.6757,10.9295,3.79999931619659,3.6797331129812125
Øyer,61.2674,10.4183,3.7999986953063627,3.4481742887745495
Øystre Slidre,61.2009,9.0746,3.8000002533097543,3.245821128853203
Drammen,59.7439,10.2045,3.8000012974762694,2.9382934978604744
Flesberg,59.8508,9.5641,3.800000638140862,3.256914362710527
Flå,60.4317,9.4652,3.7999996038898773,2.5426177024453462
Gol,60.7016,8.9433,3.8000008780994725,2.4551029439824648
Hemsedal,60.8623,8.5481,3.7999993838432493,4.373239460680403
Hol,60.6042,8.5646,3.7999998659575738,3.4725758204264556
Hole,60.0654,10.2778,3.7999984433966825,2.0078200448800056
Hurum,59.631,10.5035,3.7999997385536735,3.9344507784794667
Kongsberg,59.6775,9.6502,3.7999992992383467,3.043706301963086
Krødsherad,60.1767,9.6869,3.800000805333137,3.726125799927897
Lier,59.7885,10.3044,3.8000005268255967,4.566421135585567
Modum,59.9446,9.9872,3.800000800251122,2.530959723075576
Nedre Eiker,59.7701,10.0706,3.7999992838206786,3.3725396312170512
Nore og Uvdal,60.2657,8.7302,3.79999945783804,3.2798942976245966
Ringerike,60.168,10.256,3.799999057481995,2.237682459675091
Rollag,60.0261,9.3006,3.800001082584795,4.481569932124302
Røyken,59.7461,10.4053,3.800000910661638,3.59056257639876
Sigdal,60.1711,9.6253,3.799999937627833,3.579480832748811
Øvre Eiker,59.7765,9.9047,3.7999993859174723,2.2855569861322835
Ål,60.6297,8.5623,3.79999908612806,3.044904556245707
Nesbyen,60.56484,9.08917,3.8000019233516493,2.440605746501893
Færder,59.22764,10.4205,3.800000986425689,2.299129962219047
Hof,59.525,10.1433,3.800000578206613,3.9472592611619057
Holmestrand,59.4881,10.3153,3.8000006665299595,3.4569620293416645
Horten,59.4175,10.4839,3.8000004246025725,2.5393975160673
Larvik,59.0533,10.035,3.8000000884084635,3.1580745883965458
Re,59.4153,10.2581,3.7999995851108888,4.10218381330783
Sande,62.2,5.5,3.7999996173893904,2.277879480735696
Sandefjord,59.1313,10.2166,3.7999984753420892,2.1763880420085413
Svelvik,59.6108,10.4091,3.7999994543719997,2.5529960943416885
Tønsberg,59.2675,10.4076,3.8000009068087834,2.4317942964614003
Bamble,59.00141,9.74372,3.7999992778441753,2.4427753222535005
Bø,68.6667,14.55,3.7999998572440057,8.24124971597525
Drangedal,59.0961,9.0647,3.8000000143811765,3.4612205454422207
Fyresdal,59.1897,8.0894,3.799999887629603,3.088348851482116
Hjartdal,59.6058,8.5008,3.799999483603132,4.722956350497108
Kragerø,58.8683,9.4092,3.800000157276217,3.3427041952217507
Kviteseid,59.4083,8.4931,3.800001042704395,2.627260772819858
Nissedal,59.0922,8.5081,3.8000009663067758,2.94766204919785
Nome,59.2908,9.0514,3.8000006374182638,3.707889971911317
Notodden,59.5603,9.2617,3.800000386983753,2.073475936391882
Porsgrunn,59.1405,9.6561,3.8000014446294803,2.3884516864118255
Sauherad,59.3978,9.2547,3.8000005413676545,2.1756154058177724
Seljord,59.4781,8.6333,3.8000006477962587,3.008737115816932
Siljan,59.2967,9.7006,3.7999995266952005,4.4989347469140695
Skien,59.2096,9.5514,3.800000287009625,2.42046896348026
Tinn,59.8663,8.6172,3.7999993840944937,5.4527723908514885
Tokke,59.4481,8.0267,3.800000788872727,3.002100433214201
Vinje,59.5825,7.9769,3.8000000741175395,4.920765134933689
Midt-Telemark,59.41307,9.06626,3.8000011046523343,3.0347344666606326
Arendal,58.4615,8.7725,3.8000006267086675,2.53510492301985
Birkenes,58.3725,8.2375,3.800000335435938,4.358431489998664
Bygland,58.83,7.8,3.7999999637581183,2.8878291465159105
Bykle,59.35,7.35,3.7999996487417116,7.736345095381822
Evje og Hornnes,58.56,7.8,3.800000814462995,2.8681313334467027
Froland,58.5186,8.6386,3.799999264392607,4.495832413992037
Gjerstad,58.88,9.0,3.79999908307074,4.366718263682101
Grimstad,58.34,8.5934,3.7999993992030836,2.4919943531758006
Iveland,58.45,7.7833,3.8000009939405097,4.278425735443508
Lillesand,58.2486,8.3786,3.8000012060577815,2.254932971412162
Risør,58.72,9.2,3.8000018986865123,2.889220333033917
Tvedestrand,58.6197,8.9314,3.800000143480142,3.4915345959196094
Valle,59.2125,7.5356,3.800000114643777,3.508315766956467
Vegårshei,58.75,8.9333,3.800000547083304,5.2856295571865175
Åmli,58.7667,8.5,3.8000002694939194,3.6857162246564292
Audnedal,58.2833,7.3333,3.7999994110433133,3.085828326898885
Farsund,58.09178,6.79499,3.7999982921027478,1.155138120428818
Flekkefjord,58.2975,6.6644,3.8000010462897027,1.6157921758311908
Hægebostad,58.35,7.1833,3.7999999411199767,5.773963409896597
Kristiansand,58.1467,7.9956,3.8000003158250863,2.0769791199716114
Kvinesdal,58.3167,6.9667,3.800000790150431,1.5210552258437275
Lindesnes,58.0833,7.2833,3.7999988950172194,2.5019635830912916
Lyngdal,58.1333,7.0667,3.800000168393962,1.58050722609495
Mandal,58.0275,7.4536,3.799999033941477,2.38469906570646
Marnardal,58.2667,7.5333,3.8000007450643007,3.4466982861427353
Sirdal,58.85,6.9,3.8000001102936243,13.975500873982424
Songdalen,58.2833,7.7167,3.799999384348917,4.572322621555458
Søgne,58.0833,7.8167,3.8000007940256335,2.6615352791018263
Vennesla,58.2667,7.9747,3.8000004034789208,3.0369801722055336
Åseral,58.61865,7.42083,3.800000540284077,4.65008908599675
Bjerkreim,58.6458,6.0731,3.8000006084444165,3.7547772155939896
Bokn,59.217,5.45,3.800000465242229,1.0160250623277407
Eigersund,58.451,6.0048,3.7999982948882227,1.2890829977622065
Finnøy,59.1667,5.8333,nan,nan
Forsand,58.9078,6.238,3.8000012736680526,1.3706461255303133
Gjesdal,58.77,6.08,3.8000002979391683,3.971334523949934
Haugesund,59.417,5.27952,3.800001836760942,1.0640238891226557
Hjelmeland,59.23,6.18,3.800000373660407,1.3462907480962143
Hå,58.6167,5.65,3.800001558346525,1.1528744396353747
Karmøy,59.2833,5.3,3.7999989834494756,1.091621698820417
Klepp,58.77,5.63,nan,nan
Kvitsøy,59.0667,5.4167,nan,nan
Lund,58.4667,6.55,3.8000011249166237,1.752694102606491
Randaberg,58.9833,5.6167,nan,nan
Sandnes,58.8524,5.7352,nan,nan
Sauda,59.65,6.35,3.7999994632107446,2.34599476522244
Sokndal,58.3467,6.2896,3.800001140284995,1.6237925711168937
Sola,58.8887,5.65,nan,nan
Stavanger,58.969,5.7331,nan,nan
Strand,59.0222,6.04,3.7999971379410544,1.0167611969999595
Suldal,59.48625,6.25623,3.7999998421934316,2.008738692974706
Time,58.725,5.73,3.8000027212022953,1.0952231692358798
Tysvær,59.4,5.5,3.8000000261331057,1.0509165362051722
Vindafjord,59.6,5.95,3.799999568447951,7.407609390376386
Askøy,60.4,5.0,3.800000838969811,1.0008576396916935
Austrheim,60.7773,4.93244,3.7999984415925216,1.3348312716961581
Bergen,60.39035,5.3177,3.7999996354810426,1.1333566479320796
Bømlo,59.8,5.2,3.7999978537529175,1.2372656122145664
Eidfjord,60.35153,7.35181,3.799999923603733,13.443028675213384
Etne,59.7,5.9,3.800000391565419,4.704687843950236
Fedje,60.76451,4.72341,3.799997960250534,1.2386923502688567
Fitjar,59.92343,5.32846,3.8000025089509903,1.1864344179245656
Fusa,60.2,5.7,3.7999997458962977,3.753900314356023
Granvin,60.5,6.7,3.8000005165822994,2.8293654750800457
Jondal,60.3,6.3,3.8000000159306246,5.766963832559007
Kvam,60.4,6.1,3.799999976216235,19.118246022419743
Kvinnherad,59.9,6.0,3.800000163628176,12.619585074558058
Lindås,60.7,5.3,3.7999992613029514,1.6367271060025657
Masfjorden,61.0,5.3,3.800000096247249,4.615854353558146
Meland,60.6,5.0,3.8000011073546816,1.1678085589166567
Modalen,60.8,5.7,3.7999998063693186,23.909755729296716
Odda,60.1,6.5,3.799999977889653,12.380450801947964
Os,60.2,5.5,3.8000002384775664,2.563945017005819
Osterøy,60.5,5.6,3.79999993626905,10.012065920257154
Voss,60.6,6.4,3.800000469275326,4.695087092685741
Øygarden,60.36319,5.11867,3.80000071682756,1.0937282876257455
Ullensvang,60.06699,6.54544,3.7999984928377435,1.7480272800438135
Alver,60.55122,5.28939,3.799998958946935,1.3756478607222635
Vaksdal,60.5917,5.82262,3.8000003623642127,4.701960413427342
Samnanger,60.39245,5.77437,3.799999988151695,1.8612105161209265
Ulvik,60.5731,6.92183,3.7999997906947027,2.8392366205382977
Sveio,59.54494,5.35543,3.8000003014838564,0.9935148915300553
Stord,59.78143,5.49527,3.8000024415769196,1.3775119402546008
Tysnes,59.99905,5.49951,3.799999143963284,1.5793068689412924
Askvoll,61.3483,5.0736,3.8000013537025086,1.6157951985388643
Aurland,60.9064,7.1949,3.799998783776545,1.7479517668002982
Bremanger,61.76794,5.29806,3.8000003085979865,4.4811104411977425
Stad,61.9104,5.9987,3.800001396182792,2.8830892027057393
Fjaler,61.3669,5.4127,3.7999992622326166,2.42604298660407
Kinn,61.59204,5.01032,3.80000180158874,1.5062256092330992
Førde,61.4526,5.8621,3.8000012608959746,2.3216870536183962
Gaular,61.3954,5.9553,3.799999832923592,14.724832851468154
Gloppen,61.76946,6.23015,3.7999994816735487,2.9764113691243685
Gulen,60.9847,5.2058,3.80000020689412,7.931195504408787
Hornindal,62.0094,6.5231,3.799999942021406,14.411091117087455
Hyllestad,61.2804,5.3018,3.7999995495756034,4.505044347545069
Høyanger,61.2165,6.0812,3.800000066100478,2.5762949059826297
Jølster,61.5708,6.2531,3.7999997640475387,11.973075535688478
Leikanger,61.1844,6.8476,3.799999267973266,2.9264785743959787
Luster,61.4979,7.3292,3.800000085063698,15.59890208811724
Lærdal,61.0992,7.4786,3.800000367890867,1.7083995779510268
Naustdal,61.5092,5.7271,3.7999993386095934,1.7980854532128427
Sogndal,61.229,7.1034,3.799999482724563,3.296458996546135
Solund,61.0918,4.8324,3.7999988353304177,1.8739845779173079
Stryn,61.9018,6.7208,3.7999989200473894,2.582007553043151
Vik,61.0674,6.5857,3.7999994416252236,4.9287657862715974
Vågsøy,61.9357,5.1111,3.8000005770157776,2.29640260148811
Årdal,61.23825,7.72024,3.7999987519249085,2.7188486887886443
Sunnfjord,61.4929,5.54849,3.7999981429440424,1.9452373566900216
Aukra,62.7922,6.9069,3.799999789450273,2.3342573354288656
Aure,63.2714,8.5233,3.799999390484912,3.77929799191256
Averøy,63.0338,7.4897,3.7999991760485217,2.370932858022425
Hustadvika,62.9163,7.3958,3.8000002178764904,4.400818850442656
Fræna,62.8851,7.1286,3.799999597331281,4.489974156175186
Giske,62.50491,6.0465,3.8000001942975974,2.3834373951862866
Gjemnes,62.9667,7.7852,3.799997894812455,2.5314597989877865
Halsa,63.0694,8.2603,3.8000004935057996,3.921252222792486
Haram,62.59971,6.4387,3.8000001145289333,2.459481977147482
Hareid,62.3667,6.025,3.8000005550207394,2.6514508512926644
Herøy,65.9917,12.2833,3.7999996485378915,2.51382374443772
Kristiansund,63.1104,7.7279,3.7999988617246383,2.555476934531349
Midsund,62.6766,6.7265,3.80000013310351,2.695246998598352
Molde,62.7375,7.1591,3.80000068788229,2.7740273464455476
Nesset,62.7325,8.1725,3.7999999895584233,15.989434157614035
Norddal,62.2631,7.2497,3.7999999923315073,11.34082138792064
Rauma,62.5667,7.7,3.800001732193912,3.006485424217227
Rindal,63.05,9.2,3.800000418832116,3.5996648380188625
Skodje,62.4833,6.7167,3.79999961094244,2.8514629350341334
Smøla,63.44,8.0,3.800000549867489,2.461397184068663
Stordal,62.3833,7.25,3.8000000038552053,12.622157135431788
Stranda,62.3167,6.9333,3.799999369986704,3.6001276530933013
Sula,61.1159,4.96715,3.8000003108593563,2.5718920415972333
Sunndal,62.6667,8.5667,3.799999465925875,3.6840862418684406
Surnadal,62.9833,8.7333,3.8000001254243467,4.243302940239703
Sykkylven,62.3833,6.5833,3.8000005295795076,4.673396215326775
Tingvoll,62.9167,8.2,3.799999623708221,3.243451434918208
Ulstein,62.346,5.844,3.799998816210763,2.9290025664040042
Vanylven,62.10641,5.56983,3.7999990511970982,2.7584584212971346
Vestnes,62.62959,7.08469,3.799999050864838,2.3701853301846443
Volda,62.1444,6.0736,3.799998509234675,2.8171771636863694
Ørskog,62.4667,6.7833,3.7999991771365433,2.5858850203535857
Fjord,62.3051,7.26369,3.7999982277033406,3.0618633010578558
Ørsta,62.19982,6.12905,3.800000525409117,3.3512084401568862
Ålesund,62.47478,6.1865,3.800000630142929,3.41078105750413
Flatanger,64.50182,10.89724,3.8000003032448935,2.3869940043185562
Fosnes,64.6753,11.2886,3.8000000399117786,2.9906163259989604
Frosta,63.5833,10.7667,3.7999989925080198,2.454260158128687
Frøya,63.7256,8.8347,3.799998174123135,2.1515340343723124
Grong,64.4561,12.3122,3.7999996113305308,5.35954745354349
Heim,63.2903,9.0919,3.7999990272651805,2.9330943850029763
Hitra,63.6033,8.9708,3.800000177187533,2.493873083856246
Holtålen,62.84,11.3003,3.8000001133998103,4.8579264103940565
Høylandet,64.6323,12.3029,3.799999626213064,4.740678122852769
Inderøy,63.8756,11.2914,3.799998755284103,3.103221043343754
Indre Fosen,63.5804,10.2241,3.800000107393741,6.677510262085386
Klæbu,63.3161,10.3947,3.799999764918486,4.505839398312064
Leka,65.0994,11.6528,3.7999998560936397,3.5879078202283035
Levanger,63.7461,11.2994,3.799998358778712,2.565843520746255
Lierne,64.4742,13.6019,3.799999783689185,5.447564655229932
Malvik,63.4211,10.8072,3.7999994835452657,2.1412627706385194
Orkland,63.0561,9.7122,3.799999268316016,4.298871801554778
Meråker,63.4247,11.7444,3.800000118197825,3.976652649341827
Midtre Gauldal,62.9525,10.4867,3.7999999843485264,4.391033134907549
Namsos - Nåavmesjenjaelmie,64.47119,11.50364,3.79999950446757,4.432474630969935
Namsskogan,64.9239,13.1569,3.8000001470304743,7.301174947475003
Oppdal,62.5944,9.6914,3.799999839422499,5.032865154701441
Selbu,63.2167,11.0311,3.7999992517566414,2.766939693170035
Trondheim - Tråante,63.4305,10.3951,3.7999996548804336,2.875475213707889
Tydal,63.0225,11.9325,3.8000001583449348,7.384186496362792
Verdal,63.7931,11.4814,3.7999993318343956,2.2115851020309156
Ørland,63.6881,9.6672,3.799999348488976,2.4941858909031387
Stjørdal,63.46802,10.93058,3.799999519034271,2.225017740400673
Osen,64.30454,10.53651,3.799999320634624,3.9271842857221735
Skaun,63.3261,10.04314,3.7999998711835525,3.9841413038529394
Melhus,63.28568,10.28068,3.8000009594259034,2.3539943729368833
Nærøysund,64.86948,11.23734,3.799999709504901,2.6625259154473113
Steinkjer,64.01206,11.50389,3.8000003920697534,2.971463639913407
Åfjord,63.9647,10.23636,3.799999229532725,2.424626619779961
Rennebu,62.82901,10.00342,3.800000371242452,4.410375342921513
Overhalla,64.49428,11.94327,3.8000005539952926,5.070252656465538
Rosse - Røros,62.57561,11.38178,3.7999991452131727,2.822147814062916
Raarvihke - Røyrvik,64.89123,13.5578,3.800000254473569,8.858056959726627
Snåase - Snåsa,64.24588,12.38517,3.799999862746579,4.248349706684697
Alstahaug,65.9442,12.4703,3.800000047483431,2.7356124032767077
Andøy,69.3,16.1333,3.799999582549441,5.323122462735133
Ballangen,68.3417,16.8333,3.7999991469530623,3.1213072444958883
Beiarn,67.0333,14.5667,3.7999999886100153,4.868912439471555
Bindal,65.08718,12.37237,3.7999999478567195,3.9559373952045003
Bodø,67.2804,14.4049,3.799999993567185,2.7192643808586956
Brønnøy,65.46598,12.20515,3.799999490370566,3.787903450514591
Dønna,66.0667,12.5167,3.7999994301071944,3.5325803301424754
Evenes - Evenášši,68.5,16.7667,3.7999997347953207,6.146192934887875
Fauske - Fuossko,67.2583,15.3906,3.8000000922404924,3.5177879850195897
Flakstad,68.1,13.25,3.7999996276945125,5.456593432538755
Gildeskål,67.0333,14.0167,3.8000002142635476,3.220857906378261
Grane,65.5667,13.3833,3.799999293456151,5.371292637685646
Hadsel,68.5592,14.90259,3.7999992222489976,4.452950414598324
Hábmer - Hamarøy,68.0833,15.6333,3.7999998374986075,3.87148137899552
Aarborte - Hattfjelldal,65.59828,13.99871,3.7999995865331395,6.904170456571086
Hemnes,66.2167,14.1,3.799999732863903,10.903520777787245
Leirfjord,66.0833,12.8833,3.8000004148066533,5.651353881071276
Lurøy,66.37527,13.1292,3.8000001631728217,12.547803635272585
Lødingen,68.4083,15.9933,3.80000053807422,4.101683684780925
Meløy,66.87464,13.71313,3.7999991966509676,3.524036446551436
Moskenes,67.9167,13.0,3.7999997722016943,12.046293669894876
Narvik,68.4385,17.4279,3.7999993372834275,5.646347850259935
Nesna,66.1961,13.0194,3.8000000236472227,4.282817894925278
Rana,66.3106,14.1428,3.8000001179405962,5.136904918789896
Rødøy,66.71277,13.29149,3.8000009643597514,2.1398103434447493
Saltdal,66.8667,15.3667,3.7999995662472386,8.109072086133185
Sortland - Suortá,68.69728,15.39786,3.799999908228111,4.994486530294483
Steigen,67.7833,15.0,3.8000001185485184,3.607586559562423
Sømna,65.3167,12.1833,3.7999996261470477,3.307075902010218
Sørfold,67.3833,15.6333,3.800000273645916,4.252102752124703
Dielddanuorri - Tjeldsund,68.5833,16.3667,3.800000075282245,13.502085445511684
Tysfjord,68.1833,16.0,3.799999817117368,5.382665664379915
Vefsn,65.8667,13.1833,3.7999996998402295,4.949671589497778
Vefsn - langs fjorden,65.8667,13.1833,3.7999996998402295,4.949671589497778
Vefsn - Mosjøen,65.8358,13.1903,3.7999999267721183,4.661259586952381
Vega,65.6833,11.9333,3.8000003641239504,3.6792092044253266
Vestvågøy,68.25,13.6,3.799999614393445,6.512801451899009
Vevelstad,65.65799,12.43707,3.8,18.453
Værøy,67.6667,12.6833,3.8000000091497848,3.205725278167754
Vågan,68.2833,14.5667,3.7999998873442937,15.063437835203594
Øksnes,68.9167,15.1667,3.800000059252391,5.592757396992855
Balsfjord,69.2403,19.2186,3.7999996736161394,4.754492428011018
Bardu,68.8667,18.35,3.80000072200214,5.572701374259799
Dyrøy,69.0928,17.7083,3.7999997044480422,5.974306653413139
Gáivuotna - Kåfjord - Kaivuono,69.4667,20.6333,3.8000001498179348,8.494842860463356
Gratangen,68.6167,17.5,3.800000044664684,10.41341391094645
Harstad - Hárstták,68.7983,16.5414,3.7999994748647126,5.086581100230792
Ibestad,68.7833,17.1,3.799999224739465,6.231225780953119
Karlsøy,69.96286,19.61316,3.7999999453372437,6.200036296664161
Kvæfjord,68.7667,16.3167,3.7999996316620077,6.818284292460319
Kvænangen,69.9333,22.0333,3.799999511515449,5.29913235438127
Loabák - Lavangen,68.7667,17.7,3.800000035173492,6.858058678935546
Lenvik,69.3667,17.95,3.799999531618913,8.652072141139998
Lyngen,69.5792,20.2083,3.8000000045421567,8.798926906154785
Målselv,69.1,18.6,3.799999578172559,4.91120583879066
Nordreisa - Ráisa - Raisi,69.75,21.0333,3.7999996705616206,6.543104968416395
Salangen,68.9167,17.8333,3.799999736116608,7.689580029982599
Skjervøy,69.9677,20.83246,3.7999999959417274,11.977552792571768
Storfjord - Omasvuotna - Omasvuono,69.3833,19.9833,3.8000003520450556,6.87952292867381
Sørreisa,69.1461,18.1564,3.799999594286688,5.262272984525465
Senja,69.29636,17.60989,3.76759646693071,8.999995639723714
Tranøy,69.2,17.4167,3.8000001764360616,7.883367373139173
Tromsø,69.6723,18.94543,3.799999743733704,7.182143575387791
Alta,69.9689,23.2717,3.800000466436464,3.9741630356588646
Berlevåg,70.8578,29.0861,3.7999997823362395,5.253818733392027
Båtsfjord,70.6333,29.7333,3.7999996659643074,5.049979964484773
Deatnu - Tana,70.19991,28.17052,3.7999995648927354,2.2668718170702506
Gamvik,71.05,28.2333,3.799999445128654,4.020290222933588
Guovdageaidnu - Kautokeino,69.0111,23.0417,3.8000013788567686,1.9973716712857095
Hammerfest - Hámmerfeasta,70.6634,23.6821,3.7999996559661273,6.941072515824153
Hasvik,70.58593,22.29272,3.800000167770319,10.299136472529897
Kárášjohka - Karasjok,69.4719,25.5114,3.7999987149831855,1.9740297990636988
Kvalsund,70.5075,24.0072,3.800000148416568,6.147672969168476
Lebesby,70.5833,27.0,3.800000123478477,3.9347569294037132
Loppa,70.25,22.35,3.8000003532773596,6.970848261850428
Måsøy,71.0,24.6667,3.799999572633006,7.060173443099238
Nordkapp,71.1667,25.7833,3.8,9.520
Porsanger - Porsáŋgu - Porsanki,70.0519,24.9719,3.799999425776931,2.998188484479224
Sør-Varanger,69.6667,29.9833,3.7999990791605582,2.1327959647269994
Unjárga - Nesseby,70.1492,28.8661,3.800000507235934,2.0025528126411083
Vadsø,70.07771,29.75464,3.8000008150973534,3.2314494493426187
