Municipality,Latitude,Longitude,Beta
Oslo,59.9171,10.72753,5.242929804616315
Aremark,59.1833,11.6833,4.997618222022179
Askim,59.5833,11.1667,4.492846029007651
Eidsberg,59.5167,11.3,4.55051029293647
Fredrikstad,59.2181,10.9298,4.983205556379443
Halden,59.1333,11.3833,5.83708365320278
Hobøl,59.6167,10.9667,4.845781295463601
Hvaler,59.0333,11.0,4.713607520236508
Marker,59.4833,11.6667,4.438555327468138
Moss,59.434,10.6577,4.710868581105633
Rakkestad,59.4278,11.3472,4.60872039091135
Rygge,59.3667,10.7833,4.820037563938596
Rømskog,59.75,11.8333,4.015066355921017
Råde,59.35,10.85,4.4978600812956415
Sarpsborg,59.2833,11.1167,5.268020051797066
Skiptvet,59.4833,11.1667,4.343188296842152
Spydeberg,59.6167,11.0833,4.455211574377139
Trøgstad,59.6333,11.3167,4.194862407923071
Våler,60.65,11.8333,4.208201522179108
Indre Østfold,59.56247,11.34845,4.169951300452056
Bærum,59.90701,10.49593,4.480960308165062
Gjerdrum,60.0833,11.0333,4.24765377363456
Hurdal,60.4333,11.0333,4.060015432856212
Lørenskog,59.9167,10.95,4.416104148086019
Nannestad,60.25,11.0333,4.350861666668158
Nes,60.1181,9.2506,4.109043140286802
Nesodden,59.8167,10.6667,5.175058760030419
Oppegård,59.8,10.8,4.916681724694446
Rælingen,59.9247,11.05,4.684614245905031
Skedsmo,59.95,11.05,4.354975009519974
Ski,59.7197,10.8356,4.663530568554166
Sørum,60.0,11.25,4.224166658716223
Ullensaker,60.1419,11.1749,4.366236321548609
Vestby,59.5333,10.75,5.283094193737384
Ås,59.6636,10.79,4.884812476014846
Enebakk,59.7666,11.1029,4.667727853570076
Aurskog-Høland,59.79585,11.47022,4.621952393356121
Lillestrøm,59.95577,11.04931,4.352577247084351
Nittedal,60.04269,10.88169,4.027815775000803
Nordre Follo,59.72049,10.83884,4.693702164186811
Eidsvoll,60.33234,11.26831,4.71780672867274
Asker,59.83697,10.43741,3.9756497348097173
Frogn,59.6658,10.63644,4.3110937517322325
Alvdal,62.1075,10.6292,5.173922325395641
Eidskog,60.05,12.1333,4.598217209502826
Elverum,60.8833,11.5667,4.362240880371985
Engerdal,61.5667,11.9167,4.420129499353018
Folldal,62.1333,9.9833,5.747446049342315
Grue,60.4333,12.3,5.662054010336195
Hamar,60.7945,11.067,5.0731195327702245
Kongsvinger,60.19,12.0,5.5044274097398
Løten,60.8167,11.3333,5.560094989876193
Nord-Odal,60.4167,11.5667,4.4632150846104555
Bjørnafjorden,62.5,11.2167,5.080841940653659
Rendalen,61.8833,11.0833,5.18416495347301
Ringsaker,60.95,10.9167,5.006158810801871
Stange,60.7167,11.2,5.481696041737133
Stor-Elvdal,61.6333,11.0,4.671197995944745
Sør-Odal,60.25,11.5667,5.420737629662001
Tolga,62.4167,10.9833,4.6484456511090775
Trysil,61.3167,12.2667,4.352608320826988
Tynset,62.275,10.7761,4.961376186479163
Åmot,61.0,11.5,4.176104091065677
Åsnes,60.5667,12.0,4.884027015856385
Dovre,62.0745,9.2524,5.146534136887362
Etnedal,60.887,9.5537,4.798326422998406
Gausdal,61.2653,10.1491,4.386320676857738
Gjøvik,60.7957,10.6916,4.419495198552105
Gran,60.3636,10.5662,4.022735160227237
Jevnaker,60.2416,10.3852,4.422254601887658
Lesja,62.2203,8.8582,3.680221905851729
Lillehammer,61.1153,10.4663,4.575890979632307
Lom,61.8371,8.5684,3.8394322036608224
Lunner,60.2975,10.6123,4.060585722540939
Nord-Aurdal,61.034,9.2754,5.133843549559638
Nord-Fron,61.5939,9.7417,5.198255256954776
Nordre Land,60.8254,10.0408,5.72759192090825
Ringebu,61.5278,10.1419,5.007927360694139
Sel,61.7722,9.3931,5.504619850582183
Skjåk,61.8781,8.263,3.8814281107790394
Søndre Land,60.6819,10.3402,4.865517514534286
Sør-Aurdal,60.8139,9.5378,5.070400621156272
Sør-Fron,61.5974,9.7508,5.66056737786324
Vang,61.1255,8.5711,3.736331869507036
Vestre Slidre,61.0754,8.9898,4.613085216166962
Vestre Toten,60.7166,10.6175,3.9881490907716963
Vågå,61.8736,8.9701,4.656210998631874
Østre Toten,60.6757,10.9295,4.154935506725
Øyer,61.2674,10.4183,4.060335208643489
Øystre Slidre,61.2009,9.0746,5.3825094879613244
Drammen,59.7439,10.2045,4.108159025821089
Flesberg,59.8508,9.5641,4.378733461422607
Flå,60.4317,9.4652,4.373479699065823
Gol,60.7016,8.9433,4.693051504676474
Hemsedal,60.8623,8.5481,3.849344060336252
Hol,60.6042,8.5646,4.958874562391017
Hole,60.0654,10.2778,4.530826644632556
Hurum,59.631,10.5035,4.224422438946503
Kongsberg,59.6775,9.6502,4.706169350442817
Krødsherad,60.1767,9.6869,4.501382069643886
Lier,59.7885,10.3044,4.1271866583132
Modum,59.9446,9.9872,4.862195930557916
Nedre Eiker,59.7701,10.0706,3.8642090142688312
Nore og Uvdal,60.2657,8.7302,5.072535177812781
Ringerike,60.168,10.256,4.616180689585021
Rollag,60.0261,9.3006,4.467789275325499
Røyken,59.7461,10.4053,3.9884253172776374
Sigdal,60.1711,9.6253,4.205013183936184
Øvre Eiker,59.7765,9.9047,5.0662762889952395
Ål,60.6297,8.5623,4.504906979466595
Nesbyen,60.56484,9.08917,4.934350761573109
Færder,59.22764,10.4205,4.27539021351243
Hof,59.525,10.1433,4.0291856295038215
Holmestrand,59.4881,10.3153,4.268625683975944
Horten,59.4175,10.4839,4.6277662884107
Larvik,59.0533,10.035,4.635164034377002
Re,59.4153,10.2581,3.9611013614535704
Sande,62.2,5.5,3.9628937363090353
Sandefjord,59.1313,10.2166,5.166072455652291
Svelvik,59.6108,10.4091,4.617487190852792
Tønsberg,59.2675,10.4076,4.711600074121921
Bamble,59.00141,9.74372,4.702832168554513
Bø,68.6667,14.55,3.4034107932951887
Drangedal,59.0961,9.0647,4.266367385877871
Fyresdal,59.1897,8.0894,4.478174362080013
Hjartdal,59.6058,8.5008,4.37013125552818
Kragerø,58.8683,9.4092,4.330515505917083
Kviteseid,59.4083,8.4931,5.527912940367994
Nissedal,59.0922,8.5081,4.566497486937289
Nome,59.2908,9.0514,4.3331633913042635
Notodden,59.5603,9.2617,5.028288072281388
Porsgrunn,59.1405,9.6561,4.74669108828425
Sauherad,59.3978,9.2547,4.931359579381587
Seljord,59.4781,8.6333,4.527527122785678
Siljan,59.2967,9.7006,3.984016168958101
Skien,59.2096,9.5514,4.720692380392251
Tinn,59.8663,8.6172,4.10843649625961
Tokke,59.4481,8.0267,5.251538875359534
Vinje,59.5825,7.9769,4.431392651398246
Midt-Telemark,59.41307,9.06626,4.29206616275536
Arendal,58.4615,8.7725,4.858962681445923
Birkenes,58.3725,8.2375,4.040224278764699
Bygland,58.83,7.8,4.605655838065675
Bykle,59.35,7.35,3.0890671063591144
Evje og Hornnes,58.56,7.8,4.618769065529341
Froland,58.5186,8.6386,3.801593946652958
Gjerstad,58.88,9.0,4.2079475780164115
Grimstad,58.34,8.5934,4.892911067419574
Iveland,58.45,7.7833,3.8874335590327718
Lillesand,58.2486,8.3786,5.093660919416575
Risør,58.72,9.2,4.604736102131864
Tvedestrand,58.6197,8.9314,4.250395627741627
Valle,59.2125,7.5356,4.436002066528951
Vegårshei,58.75,8.9333,3.528567378807563
Åmli,58.7667,8.5,4.521941762324946
Audnedal,58.2833,7.3333,4.679641193277926
Farsund,58.09178,6.79499,5.305105661563533
Flekkefjord,58.2975,6.6644,4.603383054598087
Hægebostad,58.35,7.1833,3.8663540593704675
Kristiansand,58.1467,7.9956,5.024864244437446
Kvinesdal,58.3167,6.9667,5.086895594319567
Lindesnes,58.0833,7.2833,4.1206864109922865
Lyngdal,58.1333,7.0667,5.0071928751108485
Mandal,58.0275,7.4536,4.494285640440045
Marnardal,58.2667,7.5333,4.469218454852114
Sirdal,58.85,6.9,2.606000387357335
Songdalen,58.2833,7.7167,4.124864088077472
Søgne,58.0833,7.8167,4.288571823400464
Vennesla,58.2667,7.9747,4.509835629475119
Åseral,58.61865,7.42083,3.7437683120743186
Bjerkreim,58.6458,6.0731,3.1350245367853287
Bokn,59.217,5.45,4.540360793564021
Eigersund,58.451,6.0048,4.61918392870634
Finnøy,59.1667,5.8333,4.804952635734972
Forsand,58.9078,6.238,5.633281381798212
Gjesdal,58.77,6.08,3.3337899328962637
Haugesund,59.417,5.27952,4.445409744158511
Hjelmeland,59.23,6.18,3.9934181940937954
Hå,58.6167,5.65,4.28584431754518
Karmøy,59.2833,5.3,4.393754034371873
Klepp,58.77,5.63,4.832063512235121
Kvitsøy,59.0667,5.4167,4.877570657316079
Lund,58.4667,6.55,5.377234640056017
Randaberg,58.9833,5.6167,5.134252771404705
Sandnes,58.8524,5.7352,5.103208150599534
Sauda,59.65,6.35,3.910853979557617
Sokndal,58.3467,6.2896,4.593685958523866
Sola,58.8887,5.65,5.145553747635499
Stavanger,58.969,5.7331,4.876443848581331
Strand,59.0222,6.04,4.538847781792772
Suldal,59.48625,6.25623,4.1898969133741835
Time,58.725,5.73,4.387164030688189
Tysvær,59.4,5.5,5.050858421490595
Vindafjord,59.6,5.95,2.9948595800751248
Askøy,60.4,5.0,4.571849502643852
Austrheim,60.7773,4.93244,4.0090490323030386
Bergen,60.39035,5.3177,4.886258046982478
Bømlo,59.8,5.2,4.15023824629052
Eidfjord,60.35153,7.35181,3.870154606032317
Etne,59.7,5.9,3.5262959354445407
Fedje,60.76451,4.72341,4.148061096814041
Fitjar,59.92343,5.32846,4.230247037010546
Fusa,60.2,5.7,3.91018743765382
Granvin,60.5,6.7,4.8485454502622325
Jondal,60.3,6.3,2.512595202973081
Kvam,60.4,6.1,2.5428089631423463
Kvinnherad,59.9,6.0,2.388892933538621
Lindås,60.7,5.3,4.578139340630818
Masfjorden,61.0,5.3,4.551407324546011
Meland,60.6,5.0,4.260814262474396
Modalen,60.8,5.7,2.31952607952663
Odda,60.1,6.5,3.522168222938268
Os,60.2,5.5,3.756503161022195
Osterøy,60.5,5.6,2.559691542109375
Voss,60.6,6.4,4.519312726025861
Øygarden,60.36319,5.11867,4.389894888020615
Ullensvang,60.06699,6.54544,4.4507548471049025
Alver,60.55122,5.28939,4.928437423079557
Vaksdal,60.5917,5.82262,3.310383362469136
Samnanger,60.39245,5.77437,4.678085925481496
Ulvik,60.5731,6.92183,3.895678838505153
Sveio,59.54494,5.35543,5.177898292596174
Stord,59.78143,5.49527,4.487163679374672
Tysnes,59.99905,5.49951,4.2252550786908785
Askvoll,61.3483,5.0736,4.603379724353209
Aurland,60.9064,7.1949,4.4508379488748275
Bremanger,61.76794,5.29806,2.868790841387026
Stad,61.9104,5.9987,4.38713172216127
Fjaler,61.3669,5.4127,4.716209251689381
Kinn,61.59204,5.01032,4.742989038201014
Førde,61.4526,5.8621,4.545338387032847
Gaular,61.3954,5.9553,2.8278389639485577
Gloppen,61.76946,6.23015,4.084982257764601
Gulen,60.9847,5.2058,2.892772300508767
Hornindal,62.0094,6.5231,2.7653856835090176
Hyllestad,61.2804,5.3018,3.798071844647259
Høyanger,61.2165,6.0812,3.74826158939828
Jølster,61.5708,6.2531,3.0407292435604796
Leikanger,61.1844,6.8476,3.533598786511114
Luster,61.4979,7.3292,3.4932419721053543
Lærdal,61.0992,7.4786,4.494855451945794
Naustdal,61.5092,5.7271,4.746182891653525
Sogndal,61.229,7.1034,3.339765639292379
Solund,61.0918,4.8324,3.914071783477578
Stryn,61.9018,6.7208,4.344810912591974
Vik,61.0674,6.5857,2.7310857466778367
Vågsøy,61.9357,5.1111,3.9485480278610083
Årdal,61.23825,7.72024,4.249330211326954
Sunnfjord,61.4929,5.54849,5.3998470575899535
Aukra,62.7922,6.9069,4.24738461020588
Aure,63.2714,8.5233,4.106847979511216
Averøy,63.0338,7.4897,4.5052924163139245
Hustadvika,62.9163,7.3958,3.4168828021062416
Fræna,62.8851,7.1286,3.8038389976284805
Giske,62.50491,6.0465,4.209063773511905
Gjemnes,62.9667,7.7852,4.861802224427562
Halsa,63.0694,8.2603,4.0409398402858265
Haram,62.59971,6.4387,3.828303062645473
Hareid,62.3667,6.025,4.016500357844378
Herøy,65.9917,12.2833,3.7904770014637332
Kristiansund,63.1104,7.7279,4.364058904217551
Midsund,62.6766,6.7265,5.310142860446611
Molde,62.7375,7.1591,4.212522739203344
Nesset,62.7325,8.1725,3.112887750267479
Norddal,62.2631,7.2497,3.1241034269695063
Rauma,62.5667,7.7,4.528947600522985
Rindal,63.05,9.2,4.194792943350022
Skodje,62.4833,6.7167,4.40774228181702
Smøla,63.44,8.0,3.8269523107655283
Stordal,62.3833,7.25,3.6416165381495182
Stranda,62.3167,6.9333,4.194558310746771
Sula,61.1159,4.96715,4.60331930539405
Sunndal,62.6667,8.5667,4.1527996289765925
Surnadal,62.9833,8.7333,3.901809471471439
Sykkylven,62.3833,6.5833,4.085671656531637
Tingvoll,62.9167,8.2,4.386441766285818
Ulstein,62.346,5.844,3.841434741853136
Vanylven,62.10641,5.56983,3.946375192125391
Vestnes,62.62959,7.08469,4.505892260881714
Volda,62.1444,6.0736,4.430411151287647
Ørskog,62.4667,6.7833,4.592909166542216
Fjord,62.3051,7.26369,5.211368932529738
Ørsta,62.19982,6.12905,4.325819728219338
Ålesund,62.47478,6.1865,3.5823814437317703
Flatanger,64.50182,10.89724,4.2063315122465195
Fosnes,64.6753,11.2886,4.3191014600939965
Frosta,63.5833,10.7667,3.8319927902256703
Frøya,63.7256,8.8347,4.064908370039965
Grong,64.4561,12.3122,2.873481155724636
Heim,63.2903,9.0919,4.575938349443114
Hitra,63.6033,8.9708,4.409739436109445
Holtålen,62.84,11.3003,3.6695345879880312
Høylandet,64.6323,12.3029,4.216609197653782
Inderøy,63.8756,11.2914,4.469128273240702
Indre Fosen,63.5804,10.2241,4.002512178898042
Klæbu,63.3161,10.3947,3.9813104504441617
Leka,65.0994,11.6528,3.2056724353227106
Levanger,63.7461,11.2994,4.607838336393872
Lierne,64.4742,13.6019,4.110149230600883
Malvik,63.4211,10.8072,4.701763316159785
Orkland,63.0561,9.7122,4.546069897372941
Meråker,63.4247,11.7444,4.0160155128736195
Midtre Gauldal,62.9525,10.4867,4.50608490145531
Namsos - Nåavmesjenjaelmie,64.47119,11.50364,3.6255199678981502
Namsskogan,64.9239,13.1569,3.8463541002416113
Oppdal,62.5944,9.6914,3.6100648175233836
Selbu,63.2167,11.0311,4.21719773674896
Trondheim - Tråante,63.4305,10.3951,4.147183857828384
Tydal,63.0225,11.9325,3.8268133397473534
Verdal,63.7931,11.4814,4.638877450127649
Ørland,63.6881,9.6672,4.126322204136949
Stjørdal,63.46802,10.93058,4.627153439885595
Osen,64.30454,10.53651,3.3517087246570156
Skaun,63.3261,10.04314,4.201594435944436
Melhus,63.28568,10.28068,4.775161714652463
Nærøysund,64.86948,11.23734,3.692086877750853
Steinkjer,64.01206,11.50389,4.087970253169617
Åfjord,63.9647,10.23636,4.1777315697269035
Rennebu,62.82901,10.00342,3.8347062816013744
Overhalla,64.49428,11.94327,3.9413269320194515
Rosse - Røros,62.57561,11.38178,4.649816307353996
Raarvihke - Røyrvik,64.89123,13.5578,3.6268962750466325
Snåase - Snåsa,64.24588,12.38517,3.6970789560359845
Alstahaug,65.9442,12.4703,4.238050162608999
Andøy,69.3,16.1333,3.5168945346806013
Ballangen,68.3417,16.8333,4.458201211826979
Beiarn,67.0333,14.5667,3.6657214470647066
Bindal,65.08718,12.37237,3.81909577996194
Bodø,67.2804,14.4049,4.721616530651423
Brønnøy,65.46598,12.20515,3.894433545768694
Dønna,66.0667,12.5167,3.5241552105101284
Evenes - Evenášši,68.5,16.7667,3.2840691383701035
Fauske - Fuossko,67.2583,15.3906,4.236701297780131
Flakstad,68.1,13.25,3.28603229548977
Gildeskål,67.0333,14.0167,4.183166035262856
Grane,65.5667,13.3833,4.396656439212774
Hadsel,68.5592,14.90259,3.617792708070283
Hábmer - Hamarøy,68.0833,15.6333,3.8564511484149375
Aarborte - Hattfjelldal,65.59828,13.99871,4.269966907134181
Hemnes,66.2167,14.1,3.477536429148648
Leirfjord,66.0833,12.8833,3.5924629412857176
Lurøy,66.37527,13.1292,2.396450272154229
Lødingen,68.4083,15.9933,3.961316959001753
Meløy,66.87464,13.71313,4.021571223503707
Moskenes,67.9167,13.0,2.70285621815387
Narvik,68.4385,17.4279,3.4203747101644857
Nesna,66.1961,13.0194,3.6833909059304517
Rana,66.3106,14.1428,3.753678824027385
Rødøy,66.71277,13.29149,4.964671825201991
Saltdal,66.8667,15.3667,4.077244974587842
Sortland - Suortá,68.69728,15.39786,3.801898345015458
Steigen,67.7833,15.0,3.980064920716537
Sømna,65.3167,12.1833,4.135342643593085
Sørfold,67.3833,15.6333,3.898193737623189
Dielddanuorri - Tjeldsund,68.5833,16.3667,3.0481867298727523
Tysfjord,68.1833,16.0,4.131658363173284
Vefsn,65.8667,13.1833,3.817426463883164
Vefsn - langs fjorden,65.8667,13.1833,3.4429815592952018
Vefsn - Mosjøen,65.8358,13.1903,3.5416348385126026
Vega,65.6833,11.9333,3.166508587337582
Vestvågøy,68.25,13.6,3.0115668998519
Vevelstad,65.65799,12.43707,2.749278896464999
Værøy,67.6667,12.6833,2.6180409085356886
Vågan,68.2833,14.5667,2.968834092802392
Øksnes,68.9167,15.1667,3.4358902974484353
Balsfjord,69.2403,19.2186,4.054972160158371
Bardu,68.8667,18.35,3.615897186240529
Dyrøy,69.0928,17.7083,3.5003538182718987
Gáivuotna - Kåfjord - Kaivuono,69.4667,20.6333,3.900017314413857
Gratangen,68.6167,17.5,3.730662947793799
Harstad - Hárstták,68.7983,16.5414,3.770524533519306
Ibestad,68.7833,17.1,3.7352551914524343
Karlsøy,69.96286,19.61316,3.4396063024214483
Kvæfjord,68.7667,16.3167,3.583482038740953
Kvænangen,69.9333,22.0333,3.524350880132937
Loabák - Lavangen,68.7667,17.7,3.8353178311513885
Lenvik,69.3667,17.95,3.4448174250373307
Lyngen,69.5792,20.2083,2.8948490618153895
Målselv,69.1,18.6,3.8308947493707692
Nordreisa - Ráisa - Raisi,69.75,21.0333,3.3524203586931747
Salangen,68.9167,17.8333,3.8683784033288284
Skjervøy,69.9677,20.83246,3.5770770444236395
Storfjord - Omasvuotna - Omasvuono,69.3833,19.9833,4.064069313639303
Sørreisa,69.1461,18.1564,3.8764119437173177
Senja,69.29636,17.60989,3.568776753962949
Tranøy,69.2,17.4167,3.207770542729428
Tromsø,69.6723,18.94543,3.4973741265395324
Alta,69.9689,23.2717,4.017126646920635
Berlevåg,70.8578,29.0861,3.3465090403061613
Båtsfjord,70.6333,29.7333,3.410355492597217
Deatnu - Tana,70.19991,28.17052,4.84949216668763
Gamvik,71.05,28.2333,3.996684386238438
Guovdageaidnu - Kautokeino,69.0111,23.0417,5.104529702278097
Hammerfest - Hámmerfeasta,70.6634,23.6821,3.258241512692998
Hasvik,70.58593,22.29272,2.6669747835288464
Kárášjohka - Karasjok,69.4719,25.5114,5.128652849315735
Kvalsund,70.5075,24.0072,3.4534480147729996
Lebesby,70.5833,27.0,4.034823754106274
Loppa,70.25,22.35,3.5466942717332923
Måsøy,71.0,24.6667,3.2313777152550545
Nordkapp,71.1667,25.7833,3.0502971965220063
Porsanger - Porsáŋgu - Porsanki,70.0519,24.9719,4.534186170672606
Sør-Varanger,69.6667,29.9833,4.971278030119408
Unjárga - Nesseby,70.1492,28.8661,5.09922202140587
Vadsø,70.07771,29.75464,4.177206442860176
